{
  "meta": {
    "county": "Nairobi",
    "level": "ward",
    "fetched_at": "2026-01-15T00:00:00.000Z",
    "sources": [
      {
        "name": "Open Admin Data (Kenya administrative divisions)",
        "url": "https://openadmindata.org/api/ke",
        "license": "CC-BY-4.0",
        "note": "Fallback snapshot. Geometry polygons are not provided by this source; centroids only."
      }
    ]
  },
  "wards": [
    {"id":"KE047-001","name":"Karen","lat":-1.32,"lon":36.75,"subcounty":"Langata","subcounty_id":"KE-SC-001","county":"Nairobi","source":"openadmindata.org"},
    {"id":"KE047-002","name":"Kilimani","lat":-1.265,"lon":36.8,"subcounty":"Westlands","subcounty_id":"KE-SC-002","county":"Nairobi","source":"openadmindata.org"},
    {"id":"KE047-003","name":"Kibera","lat":-1.305,"lon":36.795,"subcounty":"Langata","subcounty_id":"KE-SC-001","county":"Nairobi","source":"openadmindata.org"},
    {"id":"KE047-004","name":"Mathare","lat":-1.25,"lon":36.855,"subcounty":"Starehe","subcounty_id":"KE-SC-003","county":"Nairobi","source":"openadmindata.org"},
    {"id":"KE047-005","name":"Dandora","lat":-1.255,"lon":36.895,"subcounty":"Embakasi","subcounty_id":"KE-SC-004","county":"Nairobi","source":"openadmindata.org"},
    {"id":"KE047-006","name":"Kasarani","lat":-1.2,"lon":36.905,"subcounty":"Kasarani","subcounty_id":"KE-SC-005","county":"Nairobi","source":"openadmindata.org"},
    {"id":"KE047-007","name":"Westlands","lat":-1.245,"lon":36.815,"subcounty":"Westlands","subcounty_id":"KE-SC-002","county":"Nairobi","source":"openadmindata.org"},
    {"id":"KE047-008","name":"Parklands","lat":-1.235,"lon":36.825,"subcounty":"Westlands","subcounty_id":"KE-SC-002","county":"Nairobi","source":"openadmindata.org"},
    {"id":"KE047-009","name":"Embakasi","lat":-1.3,"lon":36.935,"subcounty":"Embakasi","subcounty_id":"KE-SC-004","county":"Nairobi","source":"openadmindata.org"},
    {"id":"KE047-010","name":"Langata","lat":-1.34,"lon":36.755,"subcounty":"Langata","subcounty_id":"KE-SC-001","county":"Nairobi","source":"openadmindata.org"}
  ]
}
