{
  "type": "FeatureCollection",
  "features": [
    {"type":"Feature","geometry":{"type":"Point","coordinates":[36.75,-1.33]},"properties":{"name":"Karen Medical Centre","type":"clinic","owner":"private","services":"general"}},
    {"type":"Feature","geometry":{"type":"Point","coordinates":[36.76,-1.32]},"properties":{"name":"Karen Hospital","type":"hospital","owner":"private","services":"general,surgical"}},
    {"type":"Feature","geometry":{"type":"Point","coordinates":[36.77,-1.315]},"properties":{"name":"Langata Health Centre","type":"health_centre","owner":"public","services":"general,maternity"}},
    {"type":"Feature","geometry":{"type":"Point","coordinates":[36.8,-1.27]},"properties":{"name":"Kilimani Medical Clinic","type":"clinic","owner":"private","services":"general"}},
    {"type":"Feature","geometry":{"type":"Point","coordinates":[36.81,-1.265]},"properties":{"name":"Westlands Health Centre","type":"health_centre","owner":"public","services":"general,maternity,pharmacy"}},
    {"type":"Feature","geometry":{"type":"Point","coordinates":[36.795,-1.3]},"properties":{"name":"Kibera Community Clinic","type":"clinic","owner":"ngo","services":"general,maternal"}},
    {"type":"Feature","geometry":{"type":"Point","coordinates":[36.8,-1.305]},"properties":{"name":"Kibera Health Centre","type":"health_centre","owner":"public","services":"general,maternity,immunisation"}},
    {"type":"Feature","geometry":{"type":"Point","coordinates":[36.85,-1.25]},"properties":{"name":"Mathare Hospital","type":"hospital","owner":"public","services":"general,surgical,maternity"}},
    {"type":"Feature","geometry":{"type":"Point","coordinates":[36.855,-1.245]},"properties":{"name":"Mathare Clinic","type":"clinic","owner":"ngo","services":"general,immunisation"}},
    {"type":"Feature","geometry":{"type":"Point","coordinates":[36.89,-1.255]},"properties":{"name":"Dandora Health Centre","type":"health_centre","owner":"public","services":"general,maternity,pharmacy"}},
    {"type":"Feature","geometry":{"type":"Point","coordinates":[36.895,-1.25]},"properties":{"name":"Dandora Clinic","type":"clinic","owner":"private","services":"general"}},
    {"type":"Feature","geometry":{"type":"Point","coordinates":[36.9,-1.2]},"properties":{"name":"Kasarani Health Centre","type":"health_centre","owner":"public","services":"general,maternity"}},
    {"type":"Feature","geometry":{"type":"Point","coordinates":[36.905,-1.205]},"properties":{"name":"Kasarani Clinic","type":"clinic","owner":"private","services":"general"}},
    {"type":"Feature","geometry":{"type":"Point","coordinates":[36.815,-1.24]},"properties":{"name":"Parklands Clinic","type":"clinic","owner":"private","services":"general"}},
    {"type":"Feature","geometry":{"type":"Point","coordinates":[36.82,-1.235]},"properties":{"name":"Parklands Medical Centre","type":"clinic","owner":"private","services":"general,dental"}},
    {"type":"Feature","geometry":{"type":"Point","coordinates":[36.93,-1.3]},"properties":{"name":"Embakasi Health Centre","type":"health_centre","owner":"public","services":"general,maternity,pharmacy"}},
    {"type":"Feature","geometry":{"type":"Point","coordinates":[36.935,-1.305]},"properties":{"name":"Embakasi Clinic","type":"clinic","owner":"ngo","services":"general,immunisation"}},
    {"type":"Feature","geometry":{"type":"Point","coordinates":[36.74,-1.34]},"properties":{"name":"Langata Clinic","type":"clinic","owner":"private","services":"general"}},
    {"type":"Feature","geometry":{"type":"Point","coordinates":[36.78,-1.27]},"properties":{"name":"Westlands Medical","type":"clinic","owner":"private","services":"general,pharmacy"}},
    {"type":"Feature","geometry":{"type":"Point","coordinates":[36.79,-1.275]},"properties":{"name":"Nairobi West Clinic","type":"clinic","owner":"private","services":"general"}},
    {"type":"Feature","geometry":{"type":"Point","coordinates":[36.83,-1.23]},"properties":{"name":"Kianda Clinic","type":"clinic","owner":"ngo","services":"general,maternal"}},
    {"type":"Feature","geometry":{"type":"Point","coordinates":[36.86,-1.23]},"properties":{"name":"Mwiki Health Centre","type":"health_centre","owner":"public","services":"general"}},
    {"type":"Feature","geometry":{"type":"Point","coordinates":[36.87,-1.22]},"properties":{"name":"Ruaraka Clinic","type":"clinic","owner":"private","services":"general"}},
    {"type":"Feature","geometry":{"type":"Point","coordinates":[36.88,-1.21]},"properties":{"name":"Kasarani Maternity","type":"hospital","owner":"public","services":"maternity,surgical"}},
    {"type":"Feature","geometry":{"type":"Point","coordinates":[36.815,-1.315]},"properties":{"name":"Otiende Clinic","type":"clinic","owner":"private","services":"general"}},
    {"type":"Feature","geometry":{"type":"Point","coordinates":[36.825,-1.31]},"properties":{"name":"Woodley Clinic","type":"clinic","owner":"ngo","services":"general,immunisation"}},
    {"type":"Feature","geometry":{"type":"Point","coordinates":[36.83,-1.28]},"properties":{"name":"Hurlingham Clinic","type":"clinic","owner":"private","services":"general,dental"}},
    {"type":"Feature","geometry":{"type":"Point","coordinates":[36.75,-1.35]},"properties":{"name":"Mbagathi Hospital","type":"hospital","owner":"public","services":"general,surgical,maternity,emergency"}},
    {"type":"Feature","geometry":{"type":"Point","coordinates":[36.825,-1.295]},"properties":{"name":"Nairobi South Clinic","type":"clinic","owner":"private","services":"general"}},
    {"type":"Feature","geometry":{"type":"Point","coordinates":[36.9,-1.26]},"properties":{"name":"Embakasi Medical Centre","type":"clinic","owner":"private","services":"general"}},
    {"type":"Feature","geometry":{"type":"Point","coordinates":[36.92,-1.23]},"properties":{"name":"Komarock Clinic","type":"clinic","owner":"ngo","services":"general,pharmacy"}},
    {"type":"Feature","geometry":{"type":"Point","coordinates":[36.94,-1.22]},"properties":{"name":"Makadara Health Centre","type":"health_centre","owner":"public","services":"general,maternity"}},
    {"type":"Feature","geometry":{"type":"Point","coordinates":[36.83,-1.26]},"properties":{"name":"Muthangari Clinic","type":"clinic","owner":"private","services":"general"}}
  ]
}
